{
  "animals": [
    {
      "id": 1,
      "name": "Godzilla",
      "breed": "Reptile",
      "ownerId": 2,
      "locationId": 1,
      "employeeId": 4,
      "icon": "gojira.png"
    },
    {
      "id": 2,
      "name": "King Ghidorah",
      "breed": "Hydra",
      "ownerId": 4,
      "locationId": 2,
      "employeeId": 2,
      "icon": "ghidorah.png"
    },
    {
      "id": 3,
      "name": "Mothra",
      "breed": "Giant Divine Moth",
      "ownerId": 1,
      "locationId": 2,
      "employeeId": 4,
      "icon": "mothra.png"
    },
    {
      "id": 4,
      "name": "King Kong",
      "breed": "Ape",
      "ownerId": 2,
      "locationId": 2,
      "employeeId": 1,
      "icon": "kong.png"
    },
    {
      "id": 5,
      "name": "Rodan",
      "breed": "Giant Pteranodon",
      "ownerId": 3,
      "locationId": 1,
      "employeeId": 2,
      "icon": "rodan.png"
    },
    {
      "id": 6,
      "name": "Ĉ̸͈͎̄̾͘t̸̛͈̺̯̲̅̓̀̃h̵͕̝̃͌̀ǘ̸̻̲̮l̸̡̛̛̈́̊̕h̷͖̚ư̷͉̣͖̟͓̓̀͆̅",
      "breed": "T̵͍̝̠͊̏̀h̴̊̇̌͜e̵̬͈̟̾̅ ̴̧̼̀͆̑G̴̝̯͈̎̿͊r̸̞͑̔e̷̙̭͈͆̽͊ȁ̵͓̿͒ẗ̴̳́ ̵̞̻̼͠D̸̖͐̈́̒ȑ̶̨̘̏̇ė̶͙̫̮a̴̗͍̓͜m̵̗͇͋̌ĕ̷̹r̸̹̣͂ͅ",
      "ownerId": 5,
      "locationId": 3,
      "employeeId": 1,
      "icon": "cthulhu.png"
    },
    {
      "id": 7,
      "name": "Ḍ̴̌̒à̶͔̯g̵̱̼̀͋͘ô̵̜̇̆n̸̢̺̔",
      "breed": "D̷͍̬͆̅͐e̵͕̠̥̋̀̽e̴̪̟͜͝p̵̥̂́ ̸̍ͅO̴͙͎͉͂͛͠n̴̪̞̔ë̵̡́͝",
      "ownerId": 5,
      "locationId": 3,
      "employeeId": 1,
      "icon": "dagon.png"
    },
    {
      "id": 8,
      "name": "Garfield",
      "breed": "Cat...?",
      "ownerId": 6,
      "locationId": 3,
      "employeeId": 3,
      "icon": "garfield.png"
    },
    {
      "name": "Tic Tac",
      "breed": "Fire Dragon",
      "ownerId": "3",
      "locationId": "2",
      "employeeId": "4",
      "icon": "tictac.png",
      "id": 9
    }
  ],
  "employees": [
    {
      "id": 1,
      "name": "Guadalupe Gryffindor",
      "role": "Sitter",
      "locationId": 2
    },
    {
      "id": 2,
      "name": "Rowen Ravenclaw",
      "role": "Sitter",
      "locationId": 2
    },
    {
      "id": 3,
      "name": "Hector Hufflepuff",
      "role": "Receptionist",
      "locationId": 1
    },
    {
      "id": 4,
      "name": "Sally Slytherin",
      "role": "Sitter",
      "locationId": 1
    }
  ],
  "locations": [
    {
      "id": 1,
      "address": "123 First St",
      "hours": "Mon-Fri: 8:00am - 5:30pm",
      "phone": "(555) 555-0987"
    },
    {
      "id": 2,
      "address": "890 Second St",
      "hours": "Tues-Fri: 9:00am - 3:00pm",
      "phone": "(555) 555-4321"
    },
    {
      "id": 3,
      "address": "Extra Dimensional Containment Facility",
      "hours": "24/7",
      "phone": "(555) 555-EVIL"
    },
    {
      "address": "Mars Detention Facility",
      "hours": "25/7",
      "phone": "N/A",
      "id": 4
    }
  ],
  "owners": [
    {
      "id": 1,
      "name": "Spike Spiegel",
      "address": "456 Mars Blvd",
      "phone": "(555) 555-5432"
    },
    {
      "id": 2,
      "name": "Faye Valentine",
      "address": "321 Mercury Ave",
      "phone": "(555) 555-9876"
    },
    {
      "id": 3,
      "name": "Jet Black",
      "address": "765 Jupiter Dr",
      "phone": "(555) 555-3456"
    },
    {
      "id": 4,
      "name": "Edward Wong Hau Pepelu Tivruski IV",
      "address": "654 Saturn Circle",
      "phone": "(555) 555-2345"
    },
    {
      "id": 5,
      "name": "null",
      "address": "∞",
      "phone": "¯\\_(ツ)_/¯"
    },
    {
      "id": 6,
      "name": "Jon Arbuckle",
      "address": "711 Maple Street",
      "phone": "(555) 555-ODIE"
    }
  ],
  "ownerships": [
    {
      "id": 1,
      "animalId": 1,
      "ownerId": 2
    },
    {
      "id": 2,
      "animalId": 2,
      "ownerId": 4
    },
    {
      "id": 3,
      "animalId": 3,
      "ownerId": 1
    },
    {
      "id": 4,
      "animalId": 4,
      "ownerId": 2
    },
    {
      "id": 5,
      "animalId": 5,
      "ownerId": 3
    },
    {
      "id": 6,
      "animalId": 6,
      "ownerId": 5
    },
    {
      "id": 7,
      "animalId": 7,
      "ownerId": 5
    },
    {
      "id": 8,
      "animalId": 8,
      "ownerId": 6
    }
  ]
}